
{ "werkers": [
    {
        "name": "Festus Man",
        "rating": "5.5",
        "longitude": "3.3605",
        "latitude": "6.56963"
    },
    {
        "name": "Bola Woman",
        "rating": "7.5",
        "longitude": "3.3689",
        "latitude": "6.55963"
    },
    {
        "name": "Kunle Boy",
        "rating": "6.5",
        "longitude": "3.3631",
        "latitude": "6.57963"
    },
    {
        "name": "Mary Amaka",
        "rating": "8.5",
        "longitude": "3.3670",
        "latitude": "6.54963"
    },
    {
        "name": "Bobo Oye",
        "rating": "3.5",
        "longitude": "3.3720",
        "latitude": "6.55963"
    },
    {
        "name": "Ahmad Ahmad",
        "rating": "8.5",
        "longitude": "3.3702",
        "latitude": "6.5693"
    }
   ]
} 
 